#name	time	long	lat	height	roll	pitch	heading
SEAG00034_021253.JPG	526372.172	106.2062809	10.40515181	116.137	-1.813665512	1.101974681	4.648874712
SEAG00035_021255.JPG	526374.172	106.2062809	10.4051519	116.204	-2.244449332	1.607818494	4.545888751
SEAG00036_021257.JPG	526376.171	106.2062799	10.40515061	116.232	-2.485511768	-6.36169627	-54.80711422
SEAG00037_021259.JPG	526378.171	106.2062429	10.40517461	116.155	-3.169578561	-22.77039137	-54.11136062
SEAG00038_021301.JPG	526380.172	106.2061171	10.40525743	116.102	-5.231364253	-22.96222492	-53.32120196
SEAG00039_021303.JPG	526382.172	106.205926	10.40538017	116.089	-4.453141604	-23.31565297	-53.66153216
SEAG00040_021305.JPG	526384.171	106.205693	10.40552637	116.121	-4.894687316	-23.15768904	-53.36556582
SEAG00041_021307.JPG	526386.171	106.2054458	10.40567887	116.197	-3.154842029	-16.31325608	-53.7326887
SEAG00042_021309.JPG	526388.172	106.2052101	10.40582567	116.188	-2.98932722	-17.71840454	-54.07152511
SEAG00043_021311.JPG	526390.172	106.2049789	10.40597068	116.228	-3.652704654	-17.72262489	-53.92455534
SEAG00044_021313.JPG	526392.171	106.2047474	10.4061159	116.161	-3.644793414	-17.08643139	-53.9127635
SEAG00045_021315.JPG	526394.171	106.2045158	10.40626101	116.174	-3.512128358	-16.49702198	-53.94154482
SEAG00046_021317.JPG	526396.172	106.2042857	10.40640569	116.14	-3.985723611	-17.18088089	-53.66433624
SEAG00047_021319.JPG	526398.172	106.2040552	10.40655058	116.198	-3.399144855	-17.63842001	-53.64374165
SEAG00048_021321.JPG	526400.172	106.2038238	10.40669536	116.195	-3.531066164	-16.56951935	-53.68058953
SEAG00049_021323.JPG	526402.171	106.2035935	10.40683966	116.182	-3.191589703	-17.17510912	-53.6932641
SEAG00050_021325.JPG	526404.171	106.2033619	10.40698499	116.188	-3.118981952	-15.00607003	-53.58978658
SEAG00051_021327.JPG	526406.172	106.203131	10.40713016	116.204	-3.199350835	-16.62672557	-53.34606994
SEAG00052_021329.JPG	526408.172	106.2029005	10.40727516	116.236	-3.329366306	-15.64882176	-53.15301198
SEAG00053_021331.JPG	526410.171	106.2026698	10.4074196	116.183	-3.43849628	-16.93700683	-53.22320445
SEAG00054_021333.JPG	526412.171	106.2024386	10.40756556	116.161	-3.91794918	-16.00724418	-52.76448269
SEAG00055_021335.JPG	526414.172	106.2022089	10.40770981	116.129	-4.505722268	-19.7428911	-52.67707559
SEAG00056_021337.JPG	526416.172	106.2019778	10.40785507	116.139	-4.151745477	-17.58565552	-52.87916624
SEAG00057_021339.JPG	526418.171	106.201747	10.40799996	116.106	-4.566534026	-18.19762045	-52.68215457
SEAG00058_021341.JPG	526420.171	106.2015156	10.40814476	116.076	-3.769993882	-17.89770165	-52.8266538
SEAG00059_021343.JPG	526422.172	106.2012841	10.40828955	116.015	-3.281592091	-17.20327975	-52.870105
SEAG00060_021345.JPG	526424.172	106.2010531	10.4084354	116.11	-5.028498189	-18.83557957	-52.36231865
SEAG00061_021348.JPG	526426.171	106.2008224	10.40858043	116.089	-4.443746447	-17.60191855	-52.52555229
SEAG00062_021349.JPG	526428.171	106.2005912	10.40872537	116.076	-3.861945747	-17.8703187	-52.34691326
SEAG00063_021351.JPG	526430.171	106.2003606	10.40886987	116.15	-4.450702304	-18.16491468	-52.14633746
SEAG00064_021353.JPG	526432.172	106.20013	10.4090149	116.154	-4.732811744	-18.04694363	-52.13972805
SEAG00065_021355.JPG	526434.172	106.1998978	10.40916088	116.176	-4.983697565	-16.7176765	-52.08957333
SEAG00066_021357.JPG	526436.171	106.1996683	10.40930637	116.163	-6.797072708	-18.41253272	-51.71656334
SEAG00067_021359.JPG	526438.171	106.1994367	10.40945111	116.187	-4.866443851	-17.6574304	-51.95604192
SEAG00068_021401.JPG	526440.172	106.1992052	10.40959482	116.133	-5.001772781	-18.56336335	-51.8395212
SEAG00069_021403.JPG	526442.172	106.1989742	10.40973989	116.117	-4.986817885	-16.54700707	-51.71254533
SEAG00070_021405.JPG	526444.171	106.1987432	10.40988504	116.066	-4.426230965	-18.23229164	-51.96990763
SEAG00071_021407.JPG	526446.171	106.1985119	10.41003034	116.052	-4.727470372	-16.62946214	-51.93529067
SEAG00072_021409.JPG	526448.172	106.1982803	10.41017574	116.101	-4.203148953	-16.04681328	-51.75920866
SEAG00073_021411.JPG	526450.172	106.1980491	10.41032058	116.118	-4.861068671	-19.13776817	-51.57156172
SEAG00074_021413.JPG	526452.171	106.1978181	10.41046577	116.067	-4.92006489	-17.72356962	-51.5932071
SEAG00075_021416.JPG	526454.171	106.1975869	10.41061078	116.069	-4.61642653	-17.97087055	-51.52357735
SEAG00076_021417.JPG	526456.172	106.1973563	10.41075575	116.07	-4.724727298	-18.28683502	-51.31736647
SEAG00077_021419.JPG	526458.172	106.1971254	10.4109005	115.991	-4.505251163	-18.51628397	-51.32288776
SEAG00078_021422.JPG	526460.171	106.1968948	10.411045	115.993	-4.144092396	-18.881893	-51.30207152
SEAG00079_021424.JPG	526462.171	106.1966638	10.4111903	116.062	-4.855451393	-18.35732999	-51.07699684
SEAG00080_021425.JPG	526464.172	106.1964326	10.41133637	116.021	-5.618735889	-17.70944842	-50.74541592
SEAG00081_021427.JPG	526466.172	106.1962029	10.41147958	116.024	-3.110832012	-7.878893682	-51.52556175
SEAG00082_021429.JPG	526468.171	106.1960235	10.41158684	116.071	0.0992442	14.49444815	-53.31469976
SEAG00083_021431.JPG	526470.171	106.1959531	10.41162906	115.911	-0.456149443	7.217244055	-54.10539331
SEAG00084_021433.JPG	526472.172	106.1959645	10.41162415	112.682	-0.673640023	-2.257297108	-55.63205793
SEAG00085_021435.JPG	526474.172	106.1959787	10.41161688	106.529	-0.734280558	-3.048314285	-52.83988605
SEAG00086_021437.JPG	526476.171	106.1959796	10.41161585	100.529	0.401711477	-0.481028024	-53.40633095
SEAG00087_021440.JPG	526478.171	106.19598	10.41161672	94.526	-0.314882081	-0.768324425	-53.87318855
SEAG00088_021441.JPG	526480.171	106.1959797	10.41161773	88.515	-1.150273658	-2.070857853	-53.24924628
SEAG00089_021443.JPG	526482.172	106.1959787	10.41161778	82.497	-2.286888687	-1.319303597	-53.77840821
SEAG00090_021446.JPG	526484.172	106.1959793	10.41161706	76.509	-0.703971406	-1.873891927	-53.64959305
SEAG00091_021447.JPG	526486.171	106.1959818	10.41161727	73.955	-1.4731578	-1.38949015	-4.941982062
SEAG00092_021449.JPG	526488.171	106.1959833	10.41161709	73.773	2.191274439	0.987232154	120.1055826
SEAG00093_021453.JPG	526490.172	106.1959901	10.41161182	73.966	0.743814773	4.381869854	119.1215928
SEAG00094_021456.JPG	526492.172	106.1959895	10.41161154	73.94	1.193105718	1.169301697	119.5655628
SEAG00095_021458.JPG	526494.171	106.1959847	10.41161457	73.938	1.939275391	3.048079774	119.50542
SEAG00096_021500.JPG	526496.171	106.1959705	10.41162201	73.95	2.203499472	1.511673499	119.7202859
SEAG00097_021501.JPG	526498.172	106.195955	10.41162921	73.922	2.003044722	1.263229872	119.71212
SEAG00098_021503.JPG	526500.172	106.1959483	10.4116313	73.904	1.586520826	1.133032823	119.6696564
SEAG00099_021505.JPG	526502.171	106.1959434	10.41163319	73.924	1.801483933	3.31711363	119.8583323
SEAG00100_021507.JPG	526504.171	106.1959311	10.41163919	73.917	2.157093021	-1.387809758	119.642651
SEAG00101_021509.JPG	526506.172	106.1959305	10.41163876	73.905	1.476114952	3.227027389	120.0090252
SEAG00102_021511.JPG	526508.172	106.1959257	10.41164199	73.887	2.012459011	-2.719962281	119.8825731
SEAG00103_021513.JPG	526510.171	106.1959255	10.41164159	73.897	1.311896985	1.508051074	119.957846
SEAG00104_021515.JPG	526512.171	106.1959259	10.41164154	73.903	1.508077326	1.599611809	120.1067127
SEAG00105_021516.JPG	526514.172	106.195926	10.41164155	73.921	1.589051129	1.461702963	120.1905834
SEAG00106_021518.JPG	526516.172	106.1959257	10.41164155	73.932	5.757391799	1.072173507	120.3592771
SEAG00107_021520.JPG	526518.171	106.195917	10.41162388	73.931	6.488687982	0.93569577	120.2375793
SEAG00108_021522.JPG	526520.171	106.1958978	10.41158665	73.939	4.072612432	0.169783352	120.4492492
SEAG00109_021524.JPG	526522.172	106.1958781	10.41154737	73.924	-15.55072644	0.881330557	120.6866173
SEAG00110_021526.JPG	526524.172	106.1958762	10.41154111	73.911	0.934960318	0.539677266	120.4964352
SEAG00111_021528.JPG	526526.171	106.1958783	10.41154699	73.918	-3.711918808	0.941634568	120.3796516
SEAG00112_021530.JPG	526528.171	106.19589	10.41157239	73.939	-2.312218251	0.941972632	120.349587
SEAG00113_021532.JPG	526530.172	106.1959073	10.41160972	73.927	-1.852725159	1.191501256	120.3682528
SEAG00114_021534.JPG	526532.172	106.1959273	10.41165182	73.907	-1.05718477	1.092487446	120.979733
SEAG00115_021536.JPG	526534.171	106.1959484	10.41169274	73.885	-0.92469146	1.345699949	120.9019648
SEAG00116_021538.JPG	526536.171	106.1959671	10.41173035	73.873	17.35307395	0.915683332	120.6255524
SEAG00117_021539.JPG	526538.172	106.1959676	10.4117367	73.922	8.968450703	0.878232859	119.557023
SEAG00118_021541.JPG	526540.172	106.1959549	10.41171045	73.922	6.547656401	1.755122232	119.7937622
SEAG00119_021544.JPG	526542.171	106.195931	10.41166404	73.924	4.814731708	0.013349041	120.523126
SEAG00120_021546.JPG	526544.171	106.1959116	10.41162316	73.902	-2.490971106	1.941918275	120.3851268
SEAG00121_021548.JPG	526546.172	106.1959113	10.41161882	73.924	0.933983159	1.798326276	120.1079627
SEAG00122_021550.JPG	526548.172	106.1959105	10.41161924	73.926	0.560710506	1.095261648	120.4302545
SEAG00123_021551.JPG	526550.171	106.1959096	10.4116193	73.923	0.040350575	1.009277964	120.6081694
SEAG00124_021553.JPG	526552.171	106.1959094	10.41161938	73.923	1.034691017	0.563375711	120.3847914
SEAG00125_021556.JPG	526554.172	106.1959101	10.41161906	73.896	0.983426258	1.561674607	120.481388
SEAG00126_021558.JPG	526556.172	106.1959105	10.41161934	73.875	1.668441719	2.12066835	120.3821177
SEAG00127_021600.JPG	526558.171	106.19591	10.41161907	73.861	1.538085099	1.20992834	120.5452124
SEAG00128_021602.JPG	526560.171	106.1959102	10.41161964	73.876	2.241265427	1.374719208	120.7306594
SEAG00129_021603.JPG	526562.172	106.1959098	10.41161972	73.879	1.529690775	1.384530476	120.9053563
SEAG00130_021606.JPG	526564.172	106.19591	10.41161932	73.891	1.759900472	1.768625172	120.985105
SEAG00131_021608.JPG	526566.171	106.1959101	10.41161951	73.892	2.064573556	1.458387203	120.8244773
SEAG00132_021609.JPG	526568.171	106.1959111	10.41162026	73.861	8.175769395	3.959084792	117.3348569
SEAG00133_021611.JPG	526570.171	106.1959126	10.41162262	73.895	1.162444704	1.82367734	117.5562819
SEAG00134_021613.JPG	526572.172	106.195914	10.41162493	73.884	2.32903017	1.372818405	117.7948476
SEAG00135_021615.JPG	526574.172	106.195915	10.41162702	73.875	0.47442779	0.965190622	117.7517977
SEAG00136_021617.JPG	526576.171	106.1959191	10.41163396	73.863	2.357757261	1.131017164	117.7450058
SEAG00137_021620.JPG	526578.171	106.1959218	10.41163742	73.871	1.898693241	0.970719355	117.6363799
SEAG00138_021622.JPG	526580.172	106.1959229	10.41163862	73.896	2.413682383	1.319152309	117.9984129
SEAG00139_021624.JPG	526582.172	106.1959221	10.41163729	73.886	1.162500474	1.256559852	117.8713885
SEAG00140_021625.JPG	526584.171	106.1959235	10.41163989	73.889	0.968661265	0.933885948	117.6693632
SEAG00141_021628.JPG	526586.171	106.1959272	10.41164697	73.888	2.444727161	0.006440658	117.4545608
SEAG00142_021630.JPG	526588.172	106.1959298	10.41165018	73.884	1.922014564	0.697263561	117.6404818
SEAG00143_021631.JPG	526590.172	106.1959315	10.41165249	73.869	2.067752213	0.600732522	117.7353252
SEAG00144_021634.JPG	526592.171	106.1959331	10.41165525	73.861	1.961371255	0.755336588	117.6702608
SEAG00145_021636.JPG	526594.171	106.1959351	10.41165825	73.865	1.990947056	0.740647492	117.7150987
SEAG00146_021638.JPG	526596.172	106.1959363	10.41165979	73.864	2.050457209	1.185169804	117.7748498
SEAG00147_021640.JPG	526598.172	106.1959363	10.41166045	74.236	2.173307714	0.716973934	117.7035138
SEAG00148_021641.JPG	526600.171	106.1959367	10.41165958	74.22	1.653033726	-11.49672543	135.1844595
SEAG00149_021643.JPG	526602.171	106.1959648	10.41163435	74.248	1.677605979	-6.914600182	135.2242588
SEAG00150_021645.JPG	526604.172	106.1959932	10.41161013	74.28	0.567527529	9.112562339	121.2237202
SEAG00151_021647.JPG	526606.172	106.1959999	10.41160859	74.288	1.914378142	-17.74555617	117.9737828
SEAG00152_021650.JPG	526608.171	106.1960496	10.41158505	74.428	1.932848672	-7.158410136	118.5461761
SEAG00153_021651.JPG	526610.171	106.1961207	10.41155064	74.647	1.454486406	-7.7389278	118.3790042
SEAG00154_021654.JPG	526612.171	106.196206	10.41150998	74.915	1.636460277	-2.903741072	118.6511314
SEAG00155_021655.JPG	526614.172	106.1962893	10.41147059	75.167	1.691634029	-5.459213644	118.5315577
SEAG00156_021657.JPG	526616.172	106.1963721	10.41143157	75.403	2.067987086	-3.319120854	118.4961818
SEAG00157_021700.JPG	526618.171	106.1964543	10.41139236	75.669	1.521881188	-3.500417127	118.7936103
SEAG00158_021701.JPG	526620.171	106.1965365	10.41135318	75.927	1.668942958	-2.635745724	118.6674055
SEAG00159_021704.JPG	526622.172	106.1966184	10.41131391	76.205	1.39170758	-3.680508859	118.7568121
SEAG00160_021705.JPG	526624.172	106.1967006	10.4112747	76.481	1.358328611	-2.200452578	118.8363461
SEAG00161_021708.JPG	526626.171	106.1967827	10.41123599	76.737	1.502619816	-3.680045566	118.8706052
SEAG00162_021710.JPG	526628.171	106.1968651	10.41119663	76.978	1.270717356	-3.108178751	118.8950841
SEAG00163_021712.JPG	526630.172	106.1969471	10.41115699	77.238	0.831681746	-2.904630433	119.0654702
SEAG00164_021714.JPG	526632.172	106.1970293	10.411118	77.483	1.148276564	-3.520132585	119.2332714
SEAG00165_021716.JPG	526634.171	106.1971113	10.41107923	77.747	1.276621713	-2.893830437	118.5118149
SEAG00166_021718.JPG	526636.171	106.1971936	10.41104074	77.998	1.352573631	-3.33111715	118.2953257
SEAG00167_021720.JPG	526638.172	106.197276	10.41100189	78.28	1.604137053	-3.209759409	118.6895121
SEAG00168_021722.JPG	526640.172	106.1973574	10.41096234	78.558	1.096741186	-3.977970048	118.7258872
SEAG00169_021724.JPG	526642.171	106.1974392	10.41092352	78.797	1.801670765	-4.063398999	118.3419381
SEAG00170_021726.JPG	526644.171	106.1975219	10.41088449	79.051	2.201334784	-2.843686252	118.4538692
SEAG00171_021728.JPG	526646.172	106.1976039	10.41084514	79.306	1.941760113	-4.243642245	118.4726759
SEAG00172_021730.JPG	526648.172	106.1976863	10.41080577	79.534	1.610771361	-3.709034834	118.4801217
SEAG00173_021732.JPG	526650.172	106.197769	10.41076663	79.816	2.381736505	-3.320070219	118.3141569
SEAG00174_021734.JPG	526652.171	106.1978514	10.41072738	80.085	2.195424525	-2.707911994	118.5944202
SEAG00175_021735.JPG	526654.171	106.1979337	10.41068837	80.358	2.172183672	-3.800049499	118.624879
SEAG00176_021738.JPG	526656.172	106.1980159	10.41064927	80.623	2.567321654	-2.925212686	118.7825944
SEAG00177_021740.JPG	526658.172	106.1980974	10.41061024	80.892	2.167950286	-3.458355013	118.8710177
SEAG00178_021742.JPG	526660.171	106.1981794	10.41057099	81.134	1.750358964	-3.954494378	118.9965399
SEAG00179_021744.JPG	526662.171	106.198262	10.41053173	81.389	1.984317298	-3.032982251	118.6431667
SEAG00180_021746.JPG	526664.172	106.198344	10.4104924	81.646	2.068758975	-3.057520637	118.9457087
SEAG00181_021748.JPG	526666.172	106.1984264	10.41045326	81.888	1.994191928	-3.283398118	118.8492742
SEAG00182_021750.JPG	526668.171	106.1985084	10.41041351	82.172	1.63158206	-2.618358085	119.1588102
SEAG00183_021752.JPG	526670.171	106.1985905	10.41037408	82.427	1.256984328	-3.292567472	118.7505897
SEAG00184_021753.JPG	526672.172	106.1986735	10.41033492	82.69	1.97066518	-2.138549497	119.2628164
SEAG00185_021755.JPG	526674.172	106.1987547	10.41029607	82.959	1.312644042	-2.818447891	118.1285101
SEAG00186_021758.JPG	526676.171	106.198837	10.41025774	83.219	2.784821648	-2.223581027	117.9274954
SEAG00187_021800.JPG	526678.171	106.1989195	10.4102188	83.469	2.871830584	-2.128710266	118.0212753
SEAG00188_021801.JPG	526680.172	106.1990019	10.41017913	83.736	2.578734616	-2.791154474	118.2289427
SEAG00189_021803.JPG	526682.172	106.1990839	10.41013971	83.991	2.552389049	-1.771147815	118.4896682
SEAG00190_021805.JPG	526684.171	106.1991627	10.41010175	84.246	2.813302949	14.53354634	119.0275645
SEAG00191_021807.JPG	526686.171	106.1991781	10.41009485	84.268	2.7860285	-1.085546769	117.6756126
SEAG00192_021809.JPG	526688.172	106.1991765	10.41009646	84.266	2.605598802	1.486526196	117.5651611
SEAG00193_021811.JPG	526690.172	106.1991733	10.41009857	84.249	2.596074331	7.373535155	117.7888984
SEAG00194_021813.JPG	526692.172	106.1991472	10.41011093	84.269	2.458687608	5.62318838	117.4344925
SEAG00195_021815.JPG	526694.171	106.1991085	10.41012886	84.293	2.304817098	2.517448774	117.3902003
SEAG00196_021820.JPG	526696.171	106.1990727	10.41014585	84.275	2.235989312	0.841352222	117.616115
SEAG00197_021823.JPG	526698.172	106.1990612	10.4101515	84.253	2.637505099	7.043469255	118.1349631
SEAG00198_021826.JPG	526700.172	106.1990455	10.41015842	84.273	1.995310445	5.678124053	117.7754754
SEAG00199_021829.JPG	526702.171	106.1990163	10.41017199	84.293	2.640401318	3.609229432	117.8553658
SEAG00200_021831.JPG	526704.171	106.1990002	10.41017934	84.264	1.900413308	-0.313727303	117.876281
SEAG00201_021834.JPG	526706.172	106.199001	10.41017863	84.249	2.014270635	2.161609757	117.8170094
SEAG00202_021836.JPG	526708.172	106.1990161	10.41017086	84.236	1.374398638	-0.724230945	117.9416451
SEAG00203_021839.JPG	526710.171	106.199065	10.41014789	84.22	2.204295015	-5.562189373	117.6426913
SEAG00204_021842.JPG	526712.171	106.1991328	10.41011623	84.245	2.311058406	-1.89291623	117.841027
SEAG00205_021844.JPG	526714.172	106.1991906	10.4100884	84.313	2.347545531	17.60500755	117.8606242
SEAG00206_021847.JPG	526716.172	106.1991859	10.41009119	84.278	1.99091039	-15.62348622	118.0771859
SEAG00207_021849.JPG	526718.171	106.1992304	10.41006934	84.056	2.018287431	-5.77963606	118.1401862
SEAG00208_021852.JPG	526720.171	106.1992996	10.41003655	83.807	1.502934894	-5.569191662	118.6735699
SEAG00209_021854.JPG	526722.172	106.1993839	10.40999674	83.594	1.547178012	-2.226010284	118.7923232
SEAG00210_021857.JPG	526724.172	106.1994684	10.40995725	83.342	1.534621042	-2.770640481	118.2444483
SEAG00211_021900.JPG	526726.171	106.1995511	10.40991857	83.088	1.653880525	-2.326769629	118.3702924
SEAG00212_021902.JPG	526728.171	106.199633	10.40988005	82.796	1.903051106	-2.170737244	118.7341851
SEAG00213_021904.JPG	526730.172	106.1997157	10.40984102	82.528	1.093654354	-1.875709397	118.3874286
SEAG00214_021907.JPG	526732.172	106.1997974	10.40980169	82.262	0.312578371	-2.61996221	118.4303862
SEAG00215_021909.JPG	526734.171	106.1998794	10.40976348	81.988	0.567975078	-3.652988105	118.5942388
SEAG00216_021912.JPG	526736.171	106.1999623	10.40972509	81.741	0.846224532	-3.36572931	118.4905673
SEAG00217_021914.JPG	526738.172	106.2000449	10.40968665	81.454	1.571705325	-2.696888417	118.5100331
SEAG00218_021915.JPG	526740.172	106.2001273	10.40964785	81.156	1.11290092	-2.785653716	118.5568089
SEAG00219_021917.JPG	526742.171	106.2002097	10.4096092	80.896	1.489842234	-3.053852647	118.726649
SEAG00220_021919.JPG	526744.171	106.2002921	10.40957045	80.626	1.04001904	-2.838293292	118.592361
SEAG00221_021921.JPG	526746.172	106.2003745	10.40953182	80.36	1.388200456	-2.950534711	118.6666882
SEAG00222_021922.JPG	526748.172	106.2004566	10.40949317	80.091	1.448996092	-3.031757146	118.8952807
SEAG00223_021924.JPG	526750.171	106.2005391	10.40945456	79.818	1.268765686	-3.082345734	118.7303716
SEAG00224_021925.JPG	526752.171	106.2006216	10.4094159	79.583	1.272007353	-3.241360221	118.7815641
SEAG00225_021927.JPG	526754.172	106.2007043	10.40937722	79.323	1.331739448	-2.52766081	118.7706964
SEAG00226_021929.JPG	526756.172	106.2007868	10.40933823	79.063	1.327793183	-2.898465615	118.6708586
SEAG00227_021930.JPG	526758.17	106.200869	10.40929981	78.811	1.718230392	-3.033102596	118.7985995
SEAG00228_021932.JPG	526760.171	106.2009515	10.40926118	78.553	1.5956724	-2.486929667	118.7767118
SEAG00229_021934.JPG	526762.172	106.2010341	10.40922199	78.279	1.28497014	-2.740243719	118.8088493
SEAG00230_021935.JPG	526764.172	106.2011167	10.40918319	78.024	1.692277315	-1.614785308	118.8182542
SEAG00231_021937.JPG	526766.171	106.2011989	10.4091447	77.767	1.628312308	-2.569923349	118.8804986
SEAG00232_021939.JPG	526768.171	106.2012816	10.4091061	77.518	2.195582558	-2.093765398	118.6292073
SEAG00233_021941.JPG	526770.172	106.2013637	10.40906753	77.275	2.120154374	-2.771642413	119.1921784
SEAG00234_021942.JPG	526772.172	106.2014453	10.40902881	77.004	1.568166041	-3.27537031	119.1046399
SEAG00235_021944.JPG	526774.171	106.201528	10.40899022	76.731	1.929156199	-2.845725858	118.9550141
SEAG00236_021946.JPG	526776.171	106.2016109	10.40895127	76.475	1.883816008	-2.704715059	119.0388053
SEAG00237_021948.JPG	526778.172	106.2016936	10.40891226	76.214	1.684005081	-2.977276375	119.0204215
SEAG00238_021950.JPG	526780.172	106.2017762	10.40887343	75.968	2.085415627	-2.268613854	119.2196918
SEAG00239_021951.JPG	526782.171	106.2018585	10.40883465	75.715	1.791178701	-2.820458093	118.8285466
SEAG00240_021953.JPG	526784.171	106.2019406	10.40879611	75.466	1.81184579	-3.28036614	119.1688904
SEAG00241_021955.JPG	526786.172	106.202023	10.40875764	75.198	1.980188961	-2.980974454	119.0528835
SEAG00242_021957.JPG	526788.172	106.202106	10.40871879	74.93	2.155822023	-2.685058546	119.0338882
SEAG00243_021959.JPG	526790.171	106.2021886	10.40867982	74.678	2.025426499	-2.481668375	118.7552993
SEAG00244_022001.JPG	526792.171	106.2022707	10.40864095	74.433	1.734370492	-2.651200235	119.0766401
SEAG00245_022003.JPG	526794.171	106.2023426	10.40860721	74.3	3.188908627	18.29898769	119.5119635
SEAG00246_022004.JPG	526796.172	106.202347	10.40860953	74.345	1.33907857	-9.356718062	91.21026718
SEAG00247_022006.JPG	526798.172	106.2023537	10.40861303	74.418	1.734590308	2.568371015	91.21557784
SEAG00248_022008.JPG	526800.171	106.2023429	10.40861232	74.452	1.013072885	6.753272214	91.20332017
SEAG00249_022010.JPG	526802.172	106.2023122	10.40861045	74.456	0.457339834	4.877001282	91.24918883
SEAG00250_022011.JPG	526804.172	106.2022751	10.40860875	74.436	0.531791978	3.856655526	91.16885316
SEAG00251_022013.JPG	526806.171	106.2022386	10.40860707	74.435	1.200901567	4.054297545	91.15763059
SEAG00252_022015.JPG	526808.171	106.2022041	10.40860594	74.419	1.193499096	3.405546732	91.32558365
SEAG00253_022017.JPG	526810.171	106.2021735	10.40860556	74.41	1.419573001	2.586048633	91.14790462
SEAG00254_022019.JPG	526812.172	106.2021646	10.4086056	74.392	1.084248946	1.541986506	91.32412141
SEAG00255_022021.JPG	526814.172	106.2021652	10.40860561	74.4	1.027219588	2.248091151	91.46646245
SEAG00256_022023.JPG	526816.171	106.2021837	10.40860552	74.401	0.512416926	-2.221834702	91.56941348
SEAG00257_022024.JPG	526818.171	106.2022376	10.40860642	74.37	0.326238236	-4.742862791	91.37377982
SEAG00258_022026.JPG	526820.172	106.2023126	10.4086088	74.374	0.666580389	-0.983608469	91.48938781
SEAG00259_022028.JPG	526822.172	106.2023667	10.40861082	74.434	1.612303664	15.47448735	91.47079592
SEAG00260_022030.JPG	526824.171	106.2023691	10.4086137	74.473	1.736711821	-18.23166393	91.11520632
SEAG00261_022032.JPG	526826.171	106.2024307	10.40861597	74.615	0.783411104	-5.48287194	91.2093185
SEAG00262_022033.JPG	526828.172	106.2025148	10.40861975	74.797	1.161425089	-4.796536914	91.30880857
SEAG00263_022035.JPG	526830.172	106.2026104	10.40862343	75.035	1.145210113	-1.43637099	91.21414083
SEAG00264_022037.JPG	526832.171	106.2027022	10.40862649	75.286	1.062756952	-1.20950178	91.20474572
SEAG00265_022039.JPG	526834.171	106.202793	10.40862965	75.519	0.806405963	-2.156444825	91.16025675
SEAG00266_022040.JPG	526836.172	106.2028841	10.40863309	75.73	1.272455528	-2.819568377	91.32411108
SEAG00267_022042.JPG	526838.172	106.2029758	10.40863625	75.959	0.761638934	-2.182388466	91.16586146
SEAG00268_022044.JPG	526840.171	106.2030674	10.40863958	76.199	0.556289428	-2.466855588	90.32996763
SEAG00269_022046.JPG	526842.171	106.2031583	10.40864304	76.431	0.73281618	-2.185464082	90.3425422
SEAG00270_022047.JPG	526844.172	106.2032491	10.40864633	76.648	0.348216497	-2.425732517	90.38279784
SEAG00271_022049.JPG	526846.172	106.2033405	10.40864949	76.875	0.829335334	-2.12713716	90.43781407
SEAG00272_022051.JPG	526848.171	106.2034319	10.40865299	77.112	0.558110917	-2.406476309	90.38183151
SEAG00273_022052.JPG	526850.171	106.2035233	10.40865651	77.339	0.747992187	-2.062611244	90.42256387
SEAG00274_022054.JPG	526852.172	106.2036141	10.40865959	77.572	0.263564455	-2.403951888	90.6171291
SEAG00275_022056.JPG	526854.172	106.2037052	10.40866292	77.788	0.675651822	-2.424316778	90.31957068
SEAG00276_022057.JPG	526856.171	106.2037969	10.40866658	77.989	1.029015017	-1.794300486	90.37047965
SEAG00277_022059.JPG	526858.171	106.203888	10.40867006	78.156	1.249986832	-1.397456407	90.20844908
SEAG00278_022101.JPG	526860.172	106.2039794	10.40867354	78.451	1.151116158	-1.891086311	90.32018741
SEAG00279_022103.JPG	526862.172	106.2040706	10.40867676	78.786	0.8458656	-2.1226241	90.2837908
SEAG00280_022105.JPG	526864.171	106.2041617	10.4086796	79.03	0.251308598	-1.934094515	90.33174709
SEAG00281_022107.JPG	526866.171	106.2042534	10.40868319	79.238	0.901682292	-2.118591062	90.30352802
SEAG00282_022109.JPG	526868.172	106.2043401	10.40868697	79.498	2.514080088	16.63165637	90.95914211
SEAG00283_022111.JPG	526870.172	106.2043512	10.40868723	79.518	1.499793386	-0.225304787	90.58987013
SEAG00284_022113.JPG	526872.171	106.2043515	10.40868714	79.544	1.491985556	2.622408639	90.2539391
SEAG00285_022117.JPG	526874.171	106.2043503	10.40868723	79.605	1.463698148	2.821667552	90.16122835
SEAG00286_022119.JPG	526876.172	106.2043395	10.40868663	79.653	1.647325496	6.156493697	90.31297425
SEAG00287_022121.JPG	526878.172	106.2043116	10.40868525	79.662	1.252638021	4.590341569	90.36511098
SEAG00288_022123.JPG	526880.171	106.2042788	10.40868376	79.649	1.22172872	4.00500154	90.25009035
SEAG00289_022125.JPG	526882.171	106.2042458	10.40868201	79.613	0.875003794	3.654901328	90.2273696
SEAG00290_022127.JPG	526884.172	106.204213	10.40868008	79.595	0.693064577	2.924354403	90.15945283
SEAG00291_022128.JPG	526886.172	106.2041826	10.40867855	79.588	0.276032421	-5.429610882	89.84280824
SEAG00292_022130.JPG	526888.171	106.204176	10.40867799	79.614	0.246970984	1.298252282	90.13950586
SEAG00293_022131.JPG	526890.171	106.2041768	10.40867789	79.605	0.258454442	0.042760658	89.9364155
SEAG00294_022133.JPG	526892.171	106.2042016	10.40867902	79.601	0.076035714	-2.866711801	90.14863827
SEAG00295_022135.JPG	526894.172	106.2042594	10.40868268	79.574	0.40510576	-4.122240365	90.32201201
SEAG00296_022137.JPG	526896.172	106.2043362	10.40868697	79.597	1.030055543	5.286124051	90.08222163
SEAG00297_022139.JPG	526898.171	106.2043662	10.4086884	79.593	0.159982101	3.943528609	90.14692083
SEAG00298_022141.JPG	526900.171	106.2043836	10.40868869	79.605	0.015580343	-5.215618249	90.97788186
SEAG00299_022143.JPG	526902.172	106.2044514	10.40869129	79.537	0.285610613	-4.94349384	90.67272392
SEAG00300_022145.JPG	526904.172	106.204539	10.40869347	79.531	-0.305071897	-3.866881034	90.11958284
SEAG00301_022147.JPG	526906.171	106.2046341	10.40869718	79.531	0.809678407	-1.989106555	90.58818648
SEAG00302_022149.JPG	526908.171	106.2047264	10.40869995	79.556	0.820695896	-2.129834633	90.59054287
SEAG00303_022151.JPG	526910.172	106.2048178	10.40870278	79.555	1.196724168	-1.349016564	90.70336228
SEAG00304_022153.JPG	526912.172	106.204909	10.40870587	79.562	0.949119102	-1.945585513	90.99437283
SEAG00305_022155.JPG	526914.171	106.2050002	10.40870846	79.554	1.145856348	-2.258967751	90.53261607
SEAG00306_022157.JPG	526916.171	106.2050911	10.40871123	79.55	1.414343326	-1.604775857	91.02345178
SEAG00307_022159.JPG	526918.172	106.2051823	10.40871378	79.563	1.035226459	-3.158919043	90.9611134
SEAG00308_022201.JPG	526920.172	106.2052743	10.40871652	79.569	1.385724507	-2.289411146	90.43319764
SEAG00309_022203.JPG	526922.171	106.2053658	10.40871976	79.564	1.833010997	-1.86244063	90.62106968
SEAG00310_022205.JPG	526924.171	106.2054573	10.40872226	79.561	0.862713255	-1.910846906	90.81300701
SEAG00311_022207.JPG	526926.172	106.2055487	10.40872491	79.561	1.145130285	-1.380568695	90.66635048
SEAG00312_022209.JPG	526928.172	106.2056398	10.40872785	79.569	1.308307586	-1.475524686	90.64699804
SEAG00313_022211.JPG	526930.172	106.205731	10.4087306	79.577	1.22575433	-1.138909054	90.54210912
SEAG00314_022214.JPG	526932.171	106.2058226	10.40873323	79.594	1.099120685	-1.266373197	90.67841027
SEAG00315_022216.JPG	526934.171	106.2059139	10.40873562	79.587	0.774655844	-1.368265313	90.49585558
SEAG00316_022218.JPG	526936.172	106.2060053	10.40873841	79.563	0.700731143	-1.242076353	90.86540682
SEAG00317_022219.JPG	526938.172	106.206097	10.40874125	79.565	0.559593912	-0.476050175	90.49048171
SEAG00318_022221.JPG	526940.171	106.2061881	10.40874418	79.559	0.639600073	-1.130734175	90.71932055
SEAG00319_022223.JPG	526942.171	106.2062792	10.40874698	79.559	0.514632253	-0.870041911	90.5545579
SEAG00320_022225.JPG	526944.172	106.2063703	10.40875002	79.552	0.236764628	-1.569519318	90.68521491
SEAG00321_022227.JPG	526946.172	106.2064616	10.40875291	79.547	0.364897129	-1.17863213	90.83452688
SEAG00322_022229.JPG	526948.171	106.206553	10.40875593	79.517	0.819653762	-0.601867668	90.4903089
SEAG00323_022231.JPG	526950.171	106.2066444	10.40875891	79.5	0.830184418	-1.025022178	90.29743075
SEAG00324_022236.JPG	526952.172	106.2067357	10.40876162	79.503	0.376212944	-1.125727401	90.58484439
SEAG00325_022238.JPG	526954.172	106.2068268	10.40876425	79.491	0.469469147	-1.10322361	90.55087852
SEAG00326_022240.JPG	526956.17	106.2069178	10.40876732	79.496	0.476257016	-1.266200244	90.66170983
SEAG00327_022241.JPG	526958.171	106.2070092	10.40877005	79.488	0.522619912	-1.607397444	90.92370945
SEAG00328_022243.JPG	526960.171	106.2071007	10.40877281	79.484	0.280160314	-0.837150352	90.37480407
SEAG00329_022245.JPG	526962.172	106.2071918	10.40877607	79.483	0.749328542	-0.815997321	90.82685024
SEAG00330_022246.JPG	526964.172	106.2072826	10.4087789	79.49	0.378470631	-2.188559293	90.43433011
SEAG00331_022248.JPG	526966.171	106.207374	10.40878183	79.485	0.58319659	-1.886851514	90.67151114
SEAG00332_022249.JPG	526968.171	106.2074655	10.40878437	79.495	0.463435363	-2.195962783	90.64151524
SEAG00333_022251.JPG	526970.172	106.207557	10.40878698	79.494	0.067425318	-1.826963281	90.76409902
SEAG00334_022253.JPG	526972.172	106.2076481	10.40878971	79.501	0.432359034	-1.802523593	90.41449578
SEAG00335_022255.JPG	526974.171	106.2077391	10.40879274	79.515	0.490602373	-2.129373342	90.76303836
SEAG00336_022257.JPG	526976.171	106.20783	10.40879552	79.465	0.417428576	-2.055920002	90.31475181
SEAG00337_022259.JPG	526978.172	106.2079018	10.40879802	79.507	1.828614841	14.30504967	90.68591875
SEAG00338_022301.JPG	526980.172	106.2079017	10.40879748	79.489	0.6017253	-15.94210962	90.59086219
SEAG00339_022303.JPG	526982.171	106.2079055	10.40879745	79.515	0.575399394	3.158173867	90.5312277
SEAG00340_022305.JPG	526984.171	106.207884	10.40879642	79.524	1.187790201	10.67040032	91.0929506
SEAG00341_022307.JPG	526986.172	106.2078236	10.40879438	79.561	0.998350499	8.721398851	91.00747816
SEAG00342_022309.JPG	526988.172	106.2077459	10.40879187	79.545	0.594539879	2.747838898	90.97787002
SEAG00343_022311.JPG	526990.171	106.207698	10.40879051	79.493	0.705302847	-1.386887246	90.79328605
SEAG00344_022313.JPG	526992.171	106.2076938	10.40879002	79.443	0.461968612	1.751890589	90.78716781
SEAG00345_022315.JPG	526994.172	106.2076934	10.40878997	79.471	0.087467312	1.399898439	90.95117546
SEAG00346_022317.JPG	526996.172	106.2077138	10.40879092	79.477	0.439772017	-2.889557031	90.90772207
SEAG00347_022319.JPG	526998.171	106.207769	10.4087926	79.49	0.114040718	-4.025530582	90.90314024
SEAG00348_022321.JPG	527000.171	106.2078446	10.40879532	79.508	0.33463842	-0.569748433	90.81381495
SEAG00349_022323.JPG	527002.172	106.2079134	10.40879763	79.579	1.066845926	17.85122461	90.88341834
SEAG00350_022325.JPG	527004.172	106.2079158	10.4087979	79.552	-0.8292794	-11.32126355	91.14119293
SEAG00351_022327.JPG	527006.171	106.2079609	10.40879956	79.452	0.285422532	-5.202883622	91.14469055
SEAG00352_022329.JPG	527008.171	106.2080366	10.40880093	79.306	0.106525373	-4.349846064	91.08036448
SEAG00353_022331.JPG	527010.172	106.2081301	10.40880281	79.199	0.291797084	-1.156701098	90.98531938
SEAG00354_022333.JPG	527012.172	106.2082234	10.40880477	79.076	-0.273851294	-1.554770419	91.01504046
SEAG00355_022335.JPG	527014.171	106.2083147	10.40880695	78.958	0.131486314	-1.697774321	91.37046438
SEAG00356_022337.JPG	527016.171	106.208406	10.40880938	78.83	0.893886132	-1.755128608	91.04048546
SEAG00357_022339.JPG	527018.172	106.208497	10.40881149	78.731	0.398460841	-2.149667393	91.14879303
SEAG00358_022341.JPG	527020.172	106.2085883	10.40881332	78.584	0.339928519	-2.068152501	91.1121877
SEAG00359_022343.JPG	527022.171	106.2086793	10.40881526	78.449	0.068393933	-2.780072493	91.14382865
SEAG00360_022345.JPG	527024.171	106.2087705	10.40881705	78.319	0.123541159	-1.824461885	91.13507637
SEAG00361_022347.JPG	527026.171	106.2088619	10.40881887	78.185	0.048960587	-2.27077994	91.19927381
SEAG00362_022349.JPG	527028.172	106.2089534	10.40882114	78.079	0.169915113	-2.48357821	91.09994022
SEAG00363_022351.JPG	527030.172	106.2090448	10.40882355	77.976	0.230989745	-2.541295466	91.02887927
SEAG00364_022353.JPG	527032.171	106.2091359	10.40882543	77.825	-0.022052179	-2.441167781	91.02040258
SEAG00365_022355.JPG	527034.171	106.209227	10.40882735	77.673	0.284693466	-2.381305546	90.90972125
SEAG00366_022357.JPG	527036.172	106.2093182	10.40882959	77.543	-0.001197892	-2.828531235	91.06626527
SEAG00367_022359.JPG	527038.172	106.2094095	10.40883182	77.408	0.273613359	-2.866372379	91.02660743
SEAG00368_022401.JPG	527040.171	106.2095009	10.408834	77.298	0.711682475	-2.128512479	90.97204069
SEAG00369_022404.JPG	527042.171	106.2095924	10.4088359	77.175	0.626621241	-2.651563169	90.9129915
SEAG00370_022406.JPG	527044.172	106.2096839	10.40883777	77.053	0.486487888	-2.725716194	91.08368905
SEAG00371_022408.JPG	527046.172	106.2097751	10.40883941	76.929	-0.09500605	-3.081226311	91.0660146
SEAG00372_022410.JPG	527048.171	106.2098667	10.40884121	76.797	-0.097103838	-2.96360543	91.22804405
SEAG00373_022411.JPG	527050.171	106.209958	10.40884349	76.703	0.422682865	-2.604445264	91.10837318
SEAG00374_022413.JPG	527052.172	106.2100494	10.4088457	76.591	0.168178943	-2.435973701	91.2680783
SEAG00375_022416.JPG	527054.172	106.2101407	10.40884775	76.474	-0.455604008	-2.943719432	90.96957766
SEAG00376_022418.JPG	527056.171	106.2102317	10.40884995	76.368	0.044153909	-3.244782479	90.80625084
SEAG00377_022420.JPG	527058.171	106.2103231	10.40885254	76.248	0.56978225	-2.880336952	91.10520505
SEAG00378_022422.JPG	527060.172	106.2104149	10.40885447	76.135	0.590536578	-2.743948098	91.16250139
SEAG00379_022424.JPG	527062.172	106.2105063	10.40885586	76.008	-0.403218252	-2.74706806	91.20180804
SEAG00380_022426.JPG	527064.171	106.2105978	10.40885741	75.872	-0.856452701	-2.044128809	91.11762489
SEAG00381_022428.JPG	527066.171	106.2106887	10.40885974	75.75	-0.881821882	-2.227442472	90.99478365
SEAG00382_022429.JPG	527068.171	106.2107798	10.40886243	75.628	0.445878516	-2.635179377	91.35425271
SEAG00383_022431.JPG	527070.172	106.2108716	10.40886475	75.541	0.346236295	-2.466445592	91.10121806
SEAG00384_022433.JPG	527072.172	106.2109625	10.40886675	75.434	-0.000433725	-2.526966857	91.25163117
SEAG00385_022435.JPG	527074.171	106.2110538	10.4088684	75.324	0.007052956	-2.820494291	90.9080946
SEAG00386_022437.JPG	527076.171	106.2111447	10.40887064	75.197	-0.058668294	-3.099119418	91.20280692
SEAG00387_022439.JPG	527078.172	106.211236	10.40887235	75.062	-0.12607464	-3.009449086	91.10670503
SEAG00388_022441.JPG	527080.172	106.2113281	10.40887419	74.954	-0.178013068	-2.260923261	91.14408747
SEAG00389_022443.JPG	527082.171	106.2114196	10.40887648	74.859	0.497512012	-1.939707097	91.12774858
SEAG00390_022445.JPG	527084.171	106.211511	10.40887871	74.744	0.198243752	-2.12708713	91.09611516
SEAG00391_022447.JPG	527086.172	106.2116019	10.40888069	74.616	-0.290141429	-2.498685459	91.20945503
SEAG00392_022449.JPG	527088.172	106.2116847	10.40888242	74.548	0.927615642	17.5648789	91.19503346
SEAG00393_022451.JPG	527090.171	106.2116918	10.40888243	74.544	-0.506227713	-8.187328661	90.85735211
SEAG00394_022453.JPG	527092.171	106.2116955	10.40888284	74.568	0.06245411	1.419365522	90.74503308
SEAG00395_022455.JPG	527094.172	106.2116863	10.40888226	74.564	0.163389034	8.302178709	90.726907
SEAG00396_022457.JPG	527096.172	106.2116452	10.40888089	74.565	0.307389097	8.082696223	90.7733623
SEAG00397_022459.JPG	527098.172	106.211581	10.40887841	74.573	0.34037493	6.162020516	90.80004154
SEAG00398_022501.JPG	527100.171	106.2115088	10.40887603	74.561	-0.024124283	4.705492826	90.51681187
SEAG00399_022503.JPG	527102.171	106.2114821	10.40887556	74.526	0.270558769	-0.554931758	90.75124776
SEAG00400_022505.JPG	527104.172	106.2114809	10.40887563	74.513	0.203526542	-6.620218849	90.88768188
SEAG00401_022507.JPG	527106.172	106.2115148	10.40887667	74.523	0.341768412	-5.210382456	91.02186631
SEAG00402_022509.JPG	527108.171	106.2115753	10.40887827	74.502	0.223553158	-5.05852896	90.63571525
SEAG00403_022511.JPG	527110.171	106.2116524	10.40888083	74.488	0.548014863	-1.184981122	90.37732877
SEAG00404_022513.JPG	527112.172	106.2117094	10.40888266	74.549	1.142949193	16.05583009	90.57926631
SEAG00405_022515.JPG	527114.172	106.2117087	10.40888234	74.573	-0.925809723	-18.45571375	91.1657428
SEAG00406_022517.JPG	527116.171	106.2117671	10.40888475	74.639	0.150349505	-5.491578938	90.81727261
SEAG00407_022519.JPG	527118.171	106.2118483	10.40888713	74.728	-0.974547261	-6.21311701	90.53106437
SEAG00408_022521.JPG	527120.172	106.2119432	10.40889011	74.844	0.45802375	-2.205940162	90.52296482
SEAG00409_022523.JPG	527122.172	106.2120363	10.408893	74.987	0.121709557	-2.569449784	90.62667489
SEAG00410_022525.JPG	527124.171	106.2121281	10.40889591	75.135	0.178526898	-1.957280863	90.60988566
SEAG00411_022527.JPG	527126.171	106.2122193	10.40889835	75.279	-0.446930971	-2.565570461	90.44624955
SEAG00412_022529.JPG	527128.172	106.2123104	10.40890123	75.406	-0.215271911	-2.552629211	90.582465
SEAG00413_022531.JPG	527130.172	106.2124021	10.40890409	75.533	0.064966216	-1.411499155	90.58042157
SEAG00414_022533.JPG	527132.171	106.2124928	10.4089068	75.661	0.045638846	-2.449282454	90.4978609
SEAG00415_022535.JPG	527134.171	106.2125839	10.40890942	75.795	-0.51828663	-2.35811718	90.4819074
SEAG00416_022537.JPG	527136.172	106.2126755	10.40891198	75.919	-0.177815397	-1.945871406	90.58908944
SEAG00417_022539.JPG	527138.172	106.212767	10.40891504	76.067	-0.293721381	-2.035958785	90.45883229
SEAG00418_022541.JPG	527140.172	106.2128581	10.40891809	76.186	-0.022647531	-2.947171155	90.69759081
SEAG00419_022543.JPG	527142.171	106.2129495	10.4089209	76.307	-0.233653121	-1.738331781	90.67161439
SEAG00420_022545.JPG	527144.171	106.213041	10.40892376	76.441	-0.060164758	-1.115766132	90.52986768
SEAG00421_022547.JPG	527146.172	106.2131318	10.40892681	76.573	0.461705903	-1.829564065	90.37167388
SEAG00422_022549.JPG	527148.172	106.2132229	10.40892951	76.712	-0.507508607	-2.559447694	90.69398526
SEAG00423_022551.JPG	527150.171	106.2133147	10.40893164	76.828	-0.727199683	-1.602049414	90.45635157
SEAG00424_022553.JPG	527152.171	106.2134062	10.40893461	76.976	-0.040461077	-1.772526582	90.72208565
SEAG00425_022555.JPG	527154.172	106.2134974	10.40893733	77.125	-0.647610347	-1.244217762	90.73825584
SEAG00426_022557.JPG	527156.172	106.2135882	10.40894023	77.262	-0.107230338	-2.09934916	90.35376644
SEAG00427_022559.JPG	527158.171	106.2136791	10.40894377	77.38	0.464995742	-2.259100035	90.4396896
SEAG00428_022601.JPG	527160.171	106.2137708	10.40894639	77.503	0.100009321	-2.059061215	90.47418573
SEAG00429_022603.JPG	527162.172	106.2138624	10.40894928	77.621	0.372729636	-2.406106733	90.59280458
SEAG00430_022605.JPG	527164.172	106.2139535	10.40895181	77.751	0.07945517	-2.260044132	90.68524781
SEAG00431_022607.JPG	527166.171	106.2140448	10.40895437	77.907	0.160443727	-1.943800917	90.65984632
SEAG00432_022609.JPG	527168.171	106.2141363	10.4089569	78.059	-0.006927973	-1.170938622	90.62739881
SEAG00433_022613.JPG	527170.172	106.2142274	10.40895961	78.173	-0.084887634	-1.220287035	90.41286946
SEAG00434_022615.JPG	527172.172	106.2143186	10.40896247	78.294	0.316261811	-1.588257791	90.5176789
SEAG00435_022617.JPG	527174.171	106.2144101	10.40896525	78.421	0.051600963	-1.526915976	90.63293605
SEAG00436_022619.JPG	527176.171	106.2145014	10.40896799	78.553	-0.140085129	-1.415847307	90.5565203
SEAG00437_022621.JPG	527178.172	106.2145927	10.40897098	78.676	0.224413365	-2.004839048	90.71391523
SEAG00438_022622.JPG	527180.172	106.2146837	10.40897383	78.816	-0.353731916	-1.484155684	90.50059562
SEAG00439_022624.JPG	527182.171	106.214775	10.40897718	78.936	0.900233391	-1.71209029	90.61977554
SEAG00440_022626.JPG	527184.171	106.2148666	10.40897945	79.078	0.190307854	-1.56148878	90.62832755
SEAG00441_022628.JPG	527186.172	106.214958	10.40898216	79.206	0.177321108	-1.337767661	90.62631273
SEAG00442_022629.JPG	527188.172	106.2150491	10.40898511	79.353	0.194962892	-1.741501316	90.6997072
SEAG00443_022631.JPG	527190.171	106.2151375	10.40898791	79.54	1.148968212	16.00009392	90.83191011
SEAG00444_022633.JPG	527192.171	106.2151549	10.40898841	79.542	-0.063174914	-0.614729277	90.94727274
SEAG00445_022635.JPG	527194.171	106.2151521	10.40898838	79.541	0.67541512	0.977103767	91.2939682
SEAG00446_022637.JPG	527196.172	106.2151473	10.40898844	79.526	0.833468434	6.942357451	90.98754797
SEAG00447_022639.JPG	527198.172	106.2151214	10.40898742	79.528	0.490508746	5.411526991	91.13380173
SEAG00448_022641.JPG	527200.171	106.2150892	10.40898638	79.487	0.552289209	6.065163747	90.91243677
SEAG00449_022643.JPG	527202.171	106.2150702	10.40898657	79.417	0.881792454	4.480809277	91.1335799
SEAG00450_022645.JPG	527204.172	106.2150462	10.40898634	79.42	1.104782503	4.380172078	91.0693394
SEAG00451_022647.JPG	527206.172	106.2150166	10.40898571	79.452	0.65644483	4.916612564	91.29046548
SEAG00452_022649.JPG	527208.171	106.2149962	10.40898496	79.458	-0.350067876	3.483900315	91.18104301
SEAG00453_022651.JPG	527210.171	106.2149936	10.40898457	79.43	-0.06420246	1.936951081	91.12864935
SEAG00454_022653.JPG	527212.172	106.2149936	10.40898432	79.459	-0.168859057	2.579344778	90.82046466
SEAG00455_022655.JPG	527214.172	106.2149935	10.40898465	79.482	-0.204468221	2.547328324	91.05112973
SEAG00456_022657.JPG	527216.171	106.2149931	10.40898487	79.473	-0.041230496	1.805882787	91.26097955
SEAG00457_022659.JPG	527218.171	106.2149925	10.40898497	79.447	0.076334858	1.698261929	91.19271169
SEAG00458_022701.JPG	527220.172	106.2149928	10.40898538	79.442	1.006120392	2.450987118	91.00834261
SEAG00459_022703.JPG	527222.172	106.2149933	10.40898506	79.437	0.35787701	2.77472788	90.96912132
SEAG00460_022705.JPG	527224.171	106.2149937	10.40898476	79.407	0.742364282	2.80492916	90.90893115
SEAG00461_022707.JPG	527226.171	106.2149933	10.40898478	79.42	0.500063089	2.450231164	90.91614942
SEAG00462_022709.JPG	527228.172	106.2149931	10.4089854	79.423	1.145483236	2.720546645	91.09981599
SEAG00463_022711.JPG	527230.172	106.2149933	10.40898506	79.432	0.109183033	3.394120612	91.18442162
SEAG00464_022713.JPG	527232.171	106.2149931	10.40898454	79.44	-1.145287352	2.93794991	91.56722847
SEAG00465_022715.JPG	527234.171	106.2149931	10.40898455	79.442	0.192907907	2.440607199	91.32981387
SEAG00466_022717.JPG	527236.172	106.2149929	10.40898465	79.44	0.127087317	2.268697239	91.2334832
SEAG00467_022719.JPG	527238.172	106.2149928	10.40898518	79.42	0.604794557	2.37578604	90.96987517
SEAG00468_022721.JPG	527240.171	106.2149928	10.40898502	79.404	0.344552717	2.901707717	91.36917582
SEAG00469_022723.JPG	527242.171	106.2149928	10.40898468	79.408	0.261104918	2.628139804	91.25200097
SEAG00470_022725.JPG	527244.172	106.2149927	10.40898484	79.416	-0.20198861	3.042406505	91.32978662
SEAG00471_022727.JPG	527246.172	106.2149926	10.40898474	79.423	-0.282247803	2.516227676	91.37139713
SEAG00472_022729.JPG	527248.171	106.2149929	10.40898445	79.423	-0.545209486	-0.779444022	91.23986056
SEAG00473_022731.JPG	527250.171	106.2150221	10.40898533	79.407	-0.581983848	-2.85857248	91.23487668
SEAG00474_022733.JPG	527252.172	106.2150827	10.40898712	79.39	-0.733161782	-3.615998777	91.02525533
SEAG00475_022735.JPG	527254.172	106.2151569	10.40898943	79.459	0.311354953	16.03330277	90.92749621
SEAG00476_022737.JPG	527256.171	106.2151645	10.40898912	79.459	-0.512633812	-3.353750442	91.55439125
SEAG00477_022739.JPG	527258.171	106.215197	10.40898957	79.368	-0.755387502	0.326155429	90.75013427
SEAG00478_022741.JPG	527260.172	106.2152673	10.40899162	79.213	-0.133129912	-3.259461133	91.61706004
SEAG00479_022744.JPG	527262.172	106.2153567	10.40899351	79.101	0.328907938	-1.820581204	91.35521787
SEAG00480_022745.JPG	527264.171	106.2154519	10.40899442	78.982	-1.272074692	-1.03183355	90.68307041
SEAG00481_022747.JPG	527266.171	106.2155436	10.40899644	78.872	-0.258089146	-0.967099773	91.31959858
SEAG00482_022750.JPG	527268.172	106.2156351	10.40899839	78.733	-0.300460303	-0.539466264	91.31124122
SEAG00483_022751.JPG	527270.172	106.2157261	10.40900009	78.585	-0.65228706	-0.894958079	91.38473664
SEAG00484_022754.JPG	527272.171	106.2158174	10.40900222	78.424	0.194596882	-0.976194549	91.18286723
SEAG00485_022755.JPG	527274.171	106.2159087	10.40900405	78.308	-0.054972409	-0.343252781	91.42919434
SEAG00486_022757.JPG	527276.172	106.216	10.40900598	78.187	0.310463976	-0.66000346	91.45995592
SEAG00487_022759.JPG	527278.172	106.2160913	10.40900707	78.048	-1.256156919	-0.560626519	91.59096535
SEAG00488_022801.JPG	527280.171	106.2161824	10.40900913	77.916	-0.32327619	-1.099367085	90.42019438
SEAG00489_022804.JPG	527282.171	106.2162728	10.40901161	77.76	0.314777074	-2.871692638	91.29815672
SEAG00490_022805.JPG	527284.172	106.2163648	10.40901378	77.634	0.875278807	-1.107849156	91.24942726
SEAG00491_022807.JPG	527286.172	106.2164557	10.4090157	77.503	1.252102732	-2.284670334	91.26368224
SEAG00492_022809.JPG	527288.171	106.2165472	10.40901754	77.356	1.068417522	-1.99847387	91.46270288
SEAG00493_022811.JPG	527290.171	106.216639	10.40901868	77.195	1.016193058	-1.908438342	91.56296232
SEAG00494_022813.JPG	527292.172	106.2167306	10.40902031	77.062	0.725565627	-2.484086168	90.74560289
SEAG00495_022815.JPG	527294.172	106.2168218	10.4090226	76.944	1.886860219	-2.085525312	91.63621717
SEAG00496_022817.JPG	527296.171	106.2169131	10.40902379	76.792	1.365141511	-2.108615085	91.24458682
SEAG00497_022819.JPG	527298.171	106.2170045	10.40902587	76.655	1.312831939	-1.808833976	91.00194821
SEAG00498_022821.JPG	527300.172	106.2170966	10.4090269	76.555	0.483934809	-1.038473046	90.79618612
SEAG00499_022824.JPG	527302.172	106.2171869	10.40902898	76.417	0.617154932	-2.720786419	91.5233226
SEAG00500_022825.JPG	527304.171	106.2172781	10.40903059	76.274	0.05300854	-2.27840298	91.04991325
SEAG00501_022827.JPG	527306.171	106.2173695	10.40903231	76.137	0.510816342	-2.2516949	91.13999442
SEAG00502_022829.JPG	527308.172	106.2174608	10.4090344	76.014	0.861479542	-2.607637711	91.46083805
SEAG00503_022832.JPG	527310.172	106.2175523	10.40903643	75.852	0.874063095	-2.203896022	91.21418082
SEAG00504_022834.JPG	527312.172	106.2176437	10.40903844	75.688	1.093382095	-2.21247175	91.75078647
SEAG00505_022836.JPG	527314.171	106.217735	10.40903987	75.53	0.555124567	-2.040472743	91.39804273
SEAG00506_022837.JPG	527316.171	106.2178261	10.40904167	75.383	0.614537537	-2.504437597	91.26529159
SEAG00507_022840.JPG	527318.172	106.2179177	10.40904347	75.241	0.750689755	-1.699688621	91.2048327
SEAG00508_022842.JPG	527320.172	106.2180088	10.40904553	75.133	1.077666807	-1.970702678	91.34697828
SEAG00509_022844.JPG	527322.171	106.2180999	10.40904721	75.014	0.856195756	-2.207084843	91.1152351
SEAG00510_022845.JPG	527324.171	106.2181913	10.4090489	74.887	0.708099433	-2.175851793	91.23089194
SEAG00511_022847.JPG	527326.172	106.2182828	10.40905071	74.756	0.782117065	-1.355403724	91.17453916
SEAG00512_022849.JPG	527328.172	106.2183743	10.40905252	74.633	0.812699419	-1.616879051	91.24890418
SEAG00513_022851.JPG	527330.171	106.2184654	10.40905432	74.503	0.717561971	-1.636623557	91.15892401
SEAG00514_022853.JPG	527332.171	106.2185567	10.40905612	74.353	0.88397302	-0.982289482	91.19058279
SEAG00515_022855.JPG	527334.172	106.2186099	10.40905692	74.355	1.582932114	18.64357557	91.71423603
SEAG00516_022857.JPG	527336.172	106.2186034	10.40905738	74.311	0.904348818	0.90491878	89.81883656
SEAG00517_022859.JPG	527338.171	106.2186038	10.40905761	74.275	1.248551907	2.67537058	90.18469346
SEAG00518_022901.JPG	527340.171	106.2185906	10.40905653	74.325	1.675370247	9.86226388	90.31070088
SEAG00519_022903.JPG	527342.172	106.2185426	10.4090535	74.36	0.968212723	10.3872491	90.3192923
SEAG00520_022905.JPG	527344.172	106.21847	10.40905009	74.363	0.964935012	7.508060374	90.01181966
SEAG00521_022907.JPG	527346.171	106.2183999	10.40904754	74.284	-0.794650187	-21.59211056	90.03787452
SEAG00522_022909.JPG	527348.171	106.2183907	10.40904857	74.237	1.688983223	2.782134854	89.8103822
SEAG00523_022911.JPG	527350.172	106.2183906	10.40904803	74.272	0.744283653	3.710280001	90.02978432
SEAG00524_022913.JPG	527352.172	106.2183989	10.40904751	74.256	-0.570579401	-9.380441022	90.78986258
SEAG00525_022915.JPG	527354.171	106.2184475	10.4090498	74.267	-0.561289705	-2.738045033	90.74718606
SEAG00526_022917.JPG	527356.171	106.2185198	10.40905329	74.289	0.134555947	0.688439348	90.6427215
SEAG00527_022919.JPG	527358.172	106.2185963	10.40905667	74.296	0.593737492	8.463390884	90.54870693
SEAG00528_022921.JPG	527360.172	106.2186203	10.40905744	74.313	0.491770347	11.81812112	90.43346888
SEAG00529_022923.JPG	527362.171	106.2186367	10.40905799	74.212	1.540896449	1.710056524	91.51490535
SEAG00530_022925.JPG	527364.171	106.2187047	10.40905901	74.006	-0.191525197	-3.06751408	90.88778361
SEAG00531_022927.JPG	527366.171	106.218791	10.40906166	73.823	0.562014973	-3.477840951	91.04018633
SEAG00532_022929.JPG	527368.172	106.2188857	10.4090642	73.626	0.048579999	-0.323110896	89.95359725
SEAG00533_022931.JPG	527370.172	106.218978	10.4090665	73.435	0.064103472	-0.480493413	89.74938916
SEAG00534_022933.JPG	527372.171	106.2190693	10.40906916	73.228	0.793601415	-0.453263064	90.81111811
SEAG00535_022935.JPG	527374.171	106.2191603	10.40907142	72.996	0.567169386	-0.860858914	90.22950367
SEAG00536_022937.JPG	527376.172	106.2192519	10.40907398	72.801	1.019845295	-0.325822023	91.39999988
SEAG00537_022939.JPG	527378.172	106.2193439	10.40907605	72.605	0.97473999	1.400239495	90.47871406
SEAG00538_022941.JPG	527380.171	106.219435	10.40907856	72.411	1.359474753	-0.170447877	91.49565131
SEAG00539_022944.JPG	527382.171	106.2195256	10.40908057	72.218	1.090010675	-0.931053136	92.02350601
SEAG00540_022946.JPG	527384.172	106.2196162	10.4090824	72.004	0.423967206	-1.228921828	91.49643491
SEAG00541_022948.JPG	527386.172	106.2197076	10.40908497	71.791	0.971178381	-0.996603663	90.51333575
SEAG00542_022949.JPG	527388.171	106.2197996	10.4090872	71.592	1.040813101	-0.142342399	91.61815985
SEAG00543_022952.JPG	527390.171	106.2198902	10.4090891	71.388	0.684350738	-1.4068683	91.43600187
SEAG00544_022954.JPG	527392.172	106.2199813	10.40909114	71.185	0.273071584	-1.203638899	90.884692
SEAG00545_022956.JPG	527394.172	106.2200726	10.40909372	70.985	0.304915642	-1.753352157	90.67441564
SEAG00546_022958.JPG	527396.171	106.2201642	10.40909602	70.799	0.235842236	-1.255560753	91.07799918
SEAG00547_023000.JPG	527398.171	106.2202555	10.40909823	70.599	0.234992552	-1.489122079	90.7659978
SEAG00548_023002.JPG	527400.172	106.220347	10.40910066	70.389	0.468898514	-1.347148489	90.91674696
SEAG00549_023003.JPG	527402.172	106.2204381	10.40910286	70.188	0.299392259	-1.240600641	90.92554999
SEAG00550_023005.JPG	527404.171	106.2205294	10.4091053	69.995	0.158463885	-1.133011697	91.1027454
SEAG00551_023007.JPG	527406.171	106.2206204	10.40910784	69.777	0.675851447	-2.582451876	90.83577009
SEAG00552_023010.JPG	527408.172	106.2207117	10.40911013	69.578	0.292968449	-2.138496833	90.87930617
SEAG00553_023014.JPG	527410.172	106.2208032	10.40911238	69.381	0.236761911	-1.931542835	90.74498549
SEAG00554_023016.JPG	527412.172	106.2208678	10.40911354	69.311	1.127128639	13.10275842	90.85432724
SEAG00555_023017.JPG	527414.171	106.2208706	10.4091131	69.324	1.835014031	1.330478347	110.8382709
SEAG00556_023019.JPG	527416.171	106.2208716	10.40911273	69.26	1.281662252	1.616777851	110.910378
SEAG00557_023021.JPG	527418.172	106.2208867	10.40910757	69.221	0.96836594	-5.373889215	111.0537055
SEAG00558_023023.JPG	527420.172	106.2209368	10.40909045	69.179	0.603723918	-4.793690604	110.8477365
SEAG00559_023024.JPG	527422.171	106.2210107	10.40906614	69.188	1.04326368	2.096286101	110.9429814
SEAG00560_023026.JPG	527424.171	106.2210399	10.40905759	69.277	1.266401169	4.737007214	110.8736269
SEAG00561_023028.JPG	527426.172	106.2210366	10.40906022	69.268	1.631986883	6.978669386	110.9019829
SEAG00562_023030.JPG	527428.172	106.2210126	10.40906896	69.248	1.512764147	4.155941239	110.6169107
SEAG00563_023031.JPG	527430.171	106.2209844	10.40907933	69.816	2.348583127	3.86273474	110.7803075
SEAG00564_023033.JPG	527432.171	106.2209556	10.40909041	70.356	2.823759556	4.400934347	110.7981185
SEAG00565_023035.JPG	527434.172	106.2209261	10.40910071	70.319	1.871367974	5.858867424	111.1892244
SEAG00566_023037.JPG	527436.172	106.2208915	10.40911105	70.339	1.530756229	3.806594884	111.0885923
SEAG00567_023039.JPG	527438.171	106.2208574	10.40912095	70.302	0.73699047	-9.709621257	110.9151699
SEAG00568_023041.JPG	527440.171	106.2208493	10.40912288	70.309	1.22079877	6.176498842	110.9516496
SEAG00569_023043.JPG	527442.172	106.2208327	10.40912777	70.574	1.739444558	5.074985335	110.7472054
SEAG00570_023045.JPG	527444.172	106.2208075	10.40913498	71.436	1.252488068	4.838127262	111.2030298
SEAG00571_023047.JPG	527446.171	106.2207868	10.4091411	71.796	1.563184823	0.61051379	110.643698
SEAG00572_023049.JPG	527448.171	106.2207798	10.4091434	71.779	0.910103092	-6.750366929	110.7110041
SEAG00573_023051.JPG	527450.172	106.2207774	10.40914394	71.869	0.575573609	1.929203267	110.7762865
SEAG00574_023054.JPG	527452.172	106.2207775	10.4091433	71.859	0.690731284	2.484825199	111.1428381
SEAG00575_023055.JPG	527454.17	106.2207775	10.40914353	71.84	1.011815526	2.732454406	110.7638343
SEAG00576_023057.JPG	527456.171	106.2207763	10.40914239	71.84	3.056741653	2.472890491	-171.3829139
SEAG00577_023059.JPG	527458.171	106.2207765	10.40914393	71.848	0.675553978	-3.696651341	-107.9189326
SEAG00578_023101.JPG	527460.172	106.220773	10.40914037	74.855	3.242434428	-3.325556414	-105.005677
SEAG00579_023103.JPG	527462.172	106.2207708	10.40913959	80.898	1.787439813	-2.404303142	-105.1605961
SEAG00580_023105.JPG	527464.171	106.2207697	10.40913909	86.846	0.412321607	-1.573357378	-104.8810494
SEAG00581_023107.JPG	527466.171	106.2207697	10.40913867	92.859	0.751613178	-2.275580561	-105.1378594
SEAG00582_023109.JPG	527468.172	106.22077	10.40913828	98.842	1.143357063	-3.205619399	-105.466548
SEAG00583_023111.JPG	527470.172	106.2207704	10.40913801	104.834	1.189648764	-3.325527178	-105.5254148
SEAG00584_023113.JPG	527472.171	106.2207702	10.40913795	110.835	0.998215005	-3.122572182	-105.5085303
SEAG00585_023115.JPG	527474.171	106.2207698	10.40913777	116.862	1.020048193	-3.035927047	-105.4795231
SEAG00586_023117.JPG	527476.172	106.2207697	10.40913755	122.868	1.075844683	-2.803192348	-105.5866277
SEAG00587_023119.JPG	527478.172	106.2207696	10.40913761	128.891	0.063497479	-1.613929919	-105.6067336
SEAG00588_023121.JPG	527480.171	106.2207687	10.40913768	134.878	0.459489346	-1.540818854	-105.6964888
SEAG00589_023123.JPG	527482.171	106.220768	10.40913842	140.861	-0.514611217	-2.479340496	-105.6849423
SEAG00590_023125.JPG	527484.172	106.2207689	10.40913835	146.913	-0.319602442	-1.96536301	-105.319861
SEAG00591_023127.JPG	527486.172	106.2207689	10.40913772	152.89	1.632318257	-2.132745489	-105.3893361
SEAG00592_023129.JPG	527488.171	106.2207685	10.40913744	158.891	1.253297044	-0.865645172	-105.145756
SEAG00593_023132.JPG	527490.171	106.2207684	10.40913881	164.979	-0.95653207	-0.839836621	-105.3212051
SEAG00594_023134.JPG	527492.171	106.2207691	10.40913824	170.987	-1.137738252	-1.259533142	-105.5332174
SEAG00595_023135.JPG	527494.172	106.2207689	10.40913794	177.008	-0.208721867	-0.702652701	-105.3812325
SEAG00596_023137.JPG	527496.172	106.2207691	10.4091381	183.031	0.103899002	-3.06748979	-105.3795442
SEAG00597_023139.JPG	527498.171	106.220768	10.4091384	189.029	-0.113004325	-2.101166214	-105.4811479
SEAG00598_023142.JPG	527500.171	106.2207674	10.4091383	195.03	-0.050195679	-1.700150999	-105.5269078
SEAG00599_023144.JPG	527502.172	106.2207651	10.40913716	199.827	-0.493863176	-14.53651577	-102.7448488
SEAG00600_023145.JPG	527504.172	106.2207117	10.40912247	199.804	-0.601921103	-17.91253159	-102.9832067
SEAG00601_023147.JPG	527506.171	106.2205849	10.40908789	199.888	-1.561266305	-22.77742964	-102.4922872
SEAG00602_023149.JPG	527508.171	106.2203854	10.40903351	199.863	-3.644457335	-25.72637994	-102.5468911
SEAG00603_023151.JPG	527510.172	106.2201262	10.40896222	199.939	-1.986490579	-20.4569378	-102.546489
SEAG00604_023153.JPG	527512.172	106.2198565	10.40888809	200.014	-1.54655745	-20.47598197	-102.7255933
SEAG00605_023155.JPG	527514.171	106.2195883	10.4088139	200.003	-0.065700265	-20.23891591	-103.0565205
SEAG00606_023157.JPG	527516.171	106.2193208	10.40874047	200.068	-0.667111296	-19.51045879	-102.6930096
SEAG00607_023159.JPG	527518.172	106.2190535	10.40866812	200.09	-1.421052261	-20.89845359	-102.5484945
SEAG00608_023201.JPG	527520.172	106.2187879	10.40859555	200.051	-2.295578427	-19.5404814	-102.5549236
SEAG00609_023203.JPG	527522.171	106.2185226	10.40852215	200.033	-1.116201717	-19.25893156	-102.9716035
SEAG00610_023205.JPG	527524.171	106.2182569	10.40844938	200.016	-1.481274041	-19.71787873	-102.5516685
SEAG00611_023207.JPG	527526.172	106.2179925	10.40837638	200.015	-0.895746051	-20.51368508	-102.784439
SEAG00612_023209.JPG	527528.172	106.2177283	10.40830454	200.026	-1.52504008	-21.01432248	-102.718956
SEAG00613_023211.JPG	527530.171	106.2174654	10.40823247	200.044	-1.059227278	-21.64975243	-102.8079864
SEAG00614_023213.JPG	527532.171	106.2172026	10.40816012	200.061	-1.007095592	-21.94994476	-103.1438652
SEAG00615_023215.JPG	527534.172	106.2169391	10.40808812	200.091	-1.29604243	-21.53752406	-103.1101435
SEAG00616_023217.JPG	527536.172	106.2166743	10.40801579	200.109	-1.612765093	-21.0326594	-103.2460033
SEAG00617_023219.JPG	527538.171	106.2164101	10.40794293	200.162	-1.956532185	-20.81680239	-102.8429646
SEAG00618_023221.JPG	527540.171	106.2161455	10.40787023	200.158	-1.225719348	-21.04861398	-103.0839169
SEAG00619_023223.JPG	527542.172	106.2158818	10.40779809	200.126	0.031805826	-21.77182058	-103.3409029
SEAG00620_023225.JPG	527544.172	106.2156179	10.40772656	200.179	-1.492011648	-21.7148262	-102.7096692
SEAG00621_023227.JPG	527546.171	106.2153529	10.40765377	200.121	-0.003621626	-21.20853743	-103.2071052
SEAG00622_023229.JPG	527548.171	106.2150872	10.40758048	200.124	0.319879355	-20.75506905	-102.9967349
SEAG00623_023231.JPG	527550.172	106.2148214	10.4075082	200.122	0.711066666	-21.09026811	-103.1620881
SEAG00624_023233.JPG	527552.172	106.2145578	10.40743627	200.113	0.025746837	-22.61634566	-102.8798873
SEAG00625_023235.JPG	527554.171	106.2142952	10.40736474	200.143	-1.523061813	-22.78450228	-102.4557605
SEAG00626_023237.JPG	527556.171	106.2140327	10.40729267	200.103	-1.388526776	-23.26988938	-102.5199559
SEAG00627_023239.JPG	527558.172	106.2137693	10.40722081	200.094	-1.079685061	-22.66184437	-102.5601966
SEAG00628_023241.JPG	527560.172	106.2135052	10.40714779	200.137	-0.51691245	-22.37635305	-102.7685588
